{
"type": "FeatureCollection", 
"features": [ 
{"type":"Feature","properties": {
 "id": "1",
 "Title":"CGI, La force de l'engagement",
 "description": "CGI, monument historique des UDEV",
 "name": "Religieux juif",
"period": "Cinquième République",
 "icon":"religious-jewish-15",
 "color": "republique52.jpg"
}, "geometry": { "type": "Point", "coordinates": [4.813071, 45.788307] } },
{"type":"Feature","properties": {
 "id": "2",
 "Title":"Entrée du métro George de Loup ",
 "description": "Oui il s agit d'une nouvelle station de métro  en mémoire à George le Conquérant qui montait un loup pour attaquer ses ennemis ",
 "name": "Cimetière",
"period": "Temps révolutionnaires",
 "icon":"cemetery-15",
 "color": "tempsrevolutionnaires2.jpg"
}, "geometry": { "type": "Point", "coordinates": [4.805506, 45.766118] } },
{"type":"Feature","properties": {
 "id": "3",
 "Title":"Ancienne demeure des U’Dev",
 "description": "Voici, l’ancien temple des U’dev ",
 "name": "Cimetière",
"period": "Cinquième République",
 "icon":"cemetery-15",
 "color": "republique52.jpg"
}, "geometry": { "type": "Point", "coordinates": [4.8059379, 45.7683916] } },
{"type":"Feature","properties": {
 "id": "4",
 "Title":"Nouveau Temple des U’Dev",
 "description": "Oui, Voici le nouveau Temple des U’Dev, leurs nouvelles installations est à la pointe de la technologie. ",
 "name": "Cimetière",
"period": "Cinquième République",
 "icon":"cemetery-15",
 "color": "republique52.jpg"
}, "geometry": { "type": "Point", "coordinates": [4.8056605, 45.7703256] } },
{"type":"Feature","properties": {
 "id": "5",
 "Title":"Parc de la Tête d’or ",
 "description": "Vaste parc du XIXe siècle avec statues, fontaines, grands arbres, roseraie, jardin botanique et lac. ",
 "name": "Cimetière",
"period": "Première guerre mondiale",
 "icon":"cemetery-15",
 "color": "ww12.jpg"
}, "geometry": { "type": "Point", "coordinates": [4.8530257, 45.7774069] } },
{"type":"Feature","properties": {
 "id": "6",
 "Title":"Zoo Tête d’or ",
 "description": "Vaste jardin zoologique verdoyant abritant des animaux exotiques d Asie, d Afrique et des Amériques.",
 "name": "Cimetière",
"period": "Cinquième République",
 "icon":"cemetery-15",
 "color": "republique52.jpg"
}, "geometry": { "type": "Point", "coordinates": [4.8545258, 45.7784452] } },
{"type":"Feature","properties": {
 "id": "7",
 "Title":"Jardin des Curiosités ",
 "description": "Il s’agit d’un parc de 6000 m² ",
 "name": "Cimetière",
"period": "Temps révolutionnaires",
 "icon":"cemetery-15",
 "color": "tempsrevolutionnaires2.jpg"
}, "geometry": { "type": "Point", "coordinates": [4.820878, 45.7550934] } },
{"type":"Feature","properties": {
 "id": "8",
 "Title":"Bonchon Les Lyonnais ",
 "description": "Des spécialités lyonnaises servies dans un cadre chaleureux aux murs oranges ornés de photos en noir et blanc. ",
 "name": "Cimetière",
"period": "Cinquième République",
 "icon":"cemetery-15",
 "color": "republique52.jpg"
}, "geometry": { "type": "Point", "coordinates": [4.8218358, 45.7618622] } },
{"type":"Feature","properties": {
 "id": "9",
 "Title":"Ninkazi ",
 "description": "Des spécialités lyonnaises servies dans un cadre chaleureux aux murs oranges ornés de photos en noir et blanc. ",
 "name": "Cimetière",
"period": "Cinquième République",
 "icon":"cemetery-15",
 "color": "republique52.jpg"
}, "geometry": { "type": "Point", "coordinates": [4.7974164, 45.7929315] } }
 ]
 }